company_dba,address_concat,latitude,longitude,rating,total_ratings,marta_density_score,user_rating_score,viability_score
Black Coffee Company,1800 Jonesboro Rd SE nan nan Atlanta GA 30315,33.704956087146,-84.377812419263,4.9,1139.0,16239.569431732281,6.397883377154872,3.0
Your 3rd Spot,400 Chattahoochee nan ROW Atlanta GA 30318,33.8044,-84.4868,4.6,3757.0,3882.0081839950735,6.244480116851673,2.928068432357976
BIG OOMP'S STUDIO KITCHEN,510 Fairburn  nan RD ATLANTA GA 30331,33.738895502751,-84.509154914184,4.7,581.0,4843.443382753108,5.999513802785448,2.813202483906524
Sammy’s Café,565 Northside Drive SW nan nan Atlanta GA 30310,33.740234008869,-84.408878015545,4.9,162.0,4457.152055844622,5.98397192615794,2.8059148190439513
Peoples Town Coffee Bar,55 Milton  nan AVE Atlanta GA 30315,33.723928818351,-84.386154927493,4.8,218.0,10165.610794583146,5.923413175123257,2.7775185132043103
The Vine Club of Atlanta,565 Northside Drive SW nan nan Atlanta GA 30310,33.740234008869,-84.408878015545,5.0,63.0,4457.152055844622,5.903089986991944,2.7679888671010935
Holy Smokin BBQ and Cajun Cuisine,1801 Delowe DR Atlanta GA 30311,33.70582667352,-84.457643341486,5.0,54.0,21767.110318770254,5.870181344747122,2.7525578376629842
TED'S MONTANA GRILL,2250 MARIETTA BLVD ATLANTA GA 30318,33.805857227128,-84.463820240026,4.5,1005.0,21105.682968764595,5.851169091323959,2.743642895500526
Red Fire Kebabs,1990 Perkerson Rd SW nan nan Atlanta GA 30310,33.700534800859,-84.417017430261,4.4,1877.0,6823.728354958722,5.840426058689241,2.7386054329517027
SLIM AND HUSKY'S,581 METROPOLITAN PKWY ATLANTA GA 30310,33.738973789727,-84.408454897072,4.4,1677.0,11512.896226780893,5.818908460856781,2.728515722075153
Cafexito Mexican Coffee Shop,900 MURPHY Avenue Atlanta GA nan,33.730350697288,-84.414038501873,4.8,117.0,1882.2189516844408,5.79450336350694,2.717072048013985
Ryokou,565 Northside Drive SW nan nan Atlanta GA 30310,33.740234008869,-84.408878015545,5.0,37.0,4457.152055844622,5.789891798308405,2.7149096616777473
MISTER SOFTEE ATLANTA,1990 Perkerson nan RD Atlanta GA 30310,33.700534800859,-84.417017430261,4.5,575.0,6823.728354958722,5.742190117540446,2.692542101366337
GUARDIAN WORKS,775 ECHO nan ST ATLANTA GA 30318,33.775366622326,-84.410350256921,4.7,148.0,4307.375204260273,5.72139754615377,2.682792359071446
BELIEVE,183 RALPH D ABERNATHY BLVD ATLANTA GA 30312,33.737082497094,-84.393784387221,4.4,1006.0,20086.908769408543,5.721332967043592,2.6827620775987913
Pallet Pastries,1170 MCDANIEL Street Atlanta GA 30310,33.723077636083,-84.401447123104,4.8,69.0,10387.268020298092,5.685647059206843,2.6660287742234097
"Rickette's World Famous Chicken , Fish , and BBQ",2740 Greenbriar Pkw nan PKWY Atlanta GA 30331,33.688594989334,-84.488609696035,4.4,741.0,9657.805930489301,5.6629777183227725,2.6553990051821277
Ideal Sports Bar,1953 LAKEWOOD AVE Atlanta GA 30315,33.702800890292,-84.384556833834,4.5,368.0,15969.698466904687,5.655161864771577,2.651734111767954
The Corner Grille Upper West Side,2341 MARIETTA BLVD Atlanta GA nan,33.805855595702,-84.464554554576,4.6,193.0,8960.177947359265,5.652388795767903,2.6504338056322205
BEE GLAD,441 ROCKWELL ST Atlanta GA nan,33.731976590231,-84.401919518287,4.8,51.0,60702.99173703525,5.623681604944704,2.6369728580980536
Westside Motor Lounge,"705 Echo Street, NW nan nan Atlanta GA 30318",33.774150682646,-84.410353024066,4.4,557.0,9550.567728626896,5.6085190475325355,2.6298630579415008
Terroir Wine,565 Northside Drive SW nan nan Atlanta GA 30310,33.740234008869,-84.408878015545,4.4,476.0,4457.152055844622,5.5785480867776505,2.615809522269733
Ira Lane Coffee,315 Deshler nan ST Atlanta GA 30310,33.711214854248,-84.434557736122,5.0,12.0,3291.353047341238,5.5569716761534185,2.605692233776506
J&J Fish and Chicken,2841 Greenbriar Pkwy nan PKWY Atlanta GA 30331,33.686618033651,-84.495719393946,4.4,368.0,12714.22648410407,5.529491601109987,2.5928066870619992
Willie B's Sisters Southern Cuisine,1990 Perkerson Rd SW nan nan Atlanta GA 30310,33.700474744523,-84.416933862687,4.3,695.0,6412.4912707605135,5.5223219730325415,2.5894448120535962
Life Bistro,2036 Sylvan nan RD Atlanta GA 30310,33.699041355261,-84.417869199262,4.2,1389.0,28245.941790871017,5.520066216106721,2.588387076177755
OMG! That's Good!,2002 Campbellton nan RD Atlanta GA 30311,33.706497016226,-84.455345023635,4.7,49.0,14914.237157189576,5.498515902037928,2.5782820244918763
Sassy's,900 MURPHY Avenue Atlanta GA 30310,33.730234188833,-84.41406381522,5.0,7.0,1865.7525732421586,5.451544993495972,2.5562571269876435
Avenue,587 North Avenue NW Atlanta Georgia 30318 nan nan nan nan nan,33.770226428178,-84.407117899697,4.5,126.0,6955.529885575565,5.446711674430181,2.553990759137122
Wing Lover,2053 SYLVAN Road Atlanta GA nan,33.69849347216,-84.418691128687,4.3,432.0,9984.230258615153,5.433689795431947,2.547884733957889
BWT FOOD TRUCK,1990 Perkerson RD SW nan nan Atlanta GA 30310,33.700474744523,-84.416933862687,5.0,6.0,6412.4912707605135,5.4225490200071285,2.542660767795299
MERIDA,1990 Perkerson Rd SW nan nan Atlanta GA 30310,33.700534800859,-84.417017430261,5.0,6.0,6823.728354958722,5.4225490200071285,2.542660767795299
Dreaming Sweets,2945 Stone Hogan Connector nan nan Atlanta GA 30331,33.675598387455,-84.497600376838,5.0,6.0,15181.16744271484,5.4225490200071285,2.5426607677952986
American Deli,"2685 Metropolitan Pkwy SW, Suite H-3 nan nan ATLANTA GA 30315",33.682657416762,-84.409021094632,4.2,790.0,8418.542585110965,5.417234123069024,2.5401685856352976
American Deli,1624 Donald Lee Hollowell PKWY Atlanta GA 30318,33.772270816272,-84.441362919491,4.2,790.0,19118.41801687617,5.417234123069024,2.5401685856352976
Atlanta dream wings,1980 DELOWE Drive Atlanta GA nan,33.701056113327,-84.456906907473,4.3,387.0,23275.064551947187,5.413197642005509,2.5382758591698873
"Hungry AF USA, Inc. d/b/a",2740 Greenbriar Parkway SW B14 nan nan Atlanta GA 30331,33.688594989334,-84.488609696035,4.3,369.0,9657.805930489301,5.404326741348807,2.5341162488110727
Rodney Scott's BBQ,668 Metropolitan Parkway nan nan Atlanta GA 30310,33.736483442474,-84.407683175247,4.1,1496.0,14032.39142987729,5.401840938140651,2.532950643065414
AMERICAN DELI,3565 MARTIN LUTHER KING JR DR SW UNIT 8 nan nan ATLANTA GA 30331,33.759178995974,-84.504399022322,4.3,347.0,11030.810835941873,5.39287907489703,2.5287483798877406
HAPPY WING'S & THINGS LLC,2760 DONALD LEE HOLLOWELL PKWY Atlanta GA nan,33.777963092447,-84.477777678742,4.3,295.0,42368.979459141876,5.362655435755343,2.5145763620374586
American Wings & Seafood,387 Cleveland Ave nan nan Atlanta GA 30315,33.681710261703,-84.402275422775,4.2,465.0,20877.833698471073,5.3207220850098,2.494913600961534
Trap City Cafe,660 Northside nan DR Atlanta GA 30318,33.772447339153,-84.408666540128,4.0,1970.0,20439.73606539933,5.3178746497117775,2.4935784240927945
Soul Good Fine Food,890 JOSEPH E BOONE BLVD Atlanta GA nan,33.763239608967,-84.416730266258,4.1,753.0,28390.18844257515,5.279722251806607,2.4756885710010357
Sauced Up ATL,1959 Lakewood Avenue SE Atlanta Georgia 30315 nan nan nan nan nan,33.702509241971,-84.384881464944,4.4,84.0,15827.683618881942,5.248944327314289,2.461256645935528
Spiller Park Coffee,2275 Marietta nan BLVD Atlanta GA 30318,33.80589517271,-84.464316277984,4.3,151.0,11094.208402906772,5.238192742816252,2.4562151733745736
ELLERY'S,2008 CAMPBELLTON RD ATLANTA GA 30311,33.706497016226,-84.455345023635,4.1,577.0,14914.237157189576,5.232390413752417,2.4534944318159417
Mustard Seed BBQ Cascade,826 WESTMONT Road Atlanta GA nan,33.732788029002,-84.437119078095,4.2,275.0,17936.765383881062,5.225181814467392,2.450114283010433
subway,2151 CAMPBELLTON Road Atlanta GA nan,33.706131858614,-84.459013279741,4.2,264.0,23784.966342611646,5.21776326705346,2.4466356884612943
MR PIGS SMOKEHOUSE,1992 DONALD LEE HOLLOWEL PKWY ATLANTA GA 30318,33.776514657669,-84.450153021352,4.0,1070.0,27154.013873817927,5.2119157883327425,2.4438937759993085
Dips Kitchen,1990 Perkerson Road nan nan Atlanta GA 30310,33.700534800859,-84.417017430261,4.5,31.0,6823.728354958722,5.177317490243958,2.427670458356949
Barrio ATL,2310 Cascade Road SW Atlanta Georgia 30311 nan nan nan nan nan,33.722361947281,-84.463041119493,4.2,207.0,10318.186342557847,5.17358660068436,2.425921025299329
Randy's Donuts,1990 PERKERSON Road Atlanta GA 30310,33.700474744523,-84.416933862687,4.3,96.0,6412.4912707605135,5.154311845734486,2.4168829948381774
Vine City Food Mart,901 Joseph E Boone NW Atlanta Georgia 30314 nan nan nan nan nan,33.763760292793,-84.417081300363,5.0,1.0,23688.598004395208,5.150514997831991,2.4151026335786767
C & J SPORTS BAR 2,1917 PRYOR RD ATLANTA GA 30315,33.702064037184,-84.399537306465,4.1,324.0,12980.36182898399,5.129872178001338,2.40542311054875
656 SPORTS BAR & GRILLE,656 PRYOR ST ATLANTA GA 30312,33.736986314755,-84.39438260365,3.8,2582.0,38348.28835839483,5.09660727434586,2.3898250283263116
I LOVE WING,3030 HEADLAND 1100 nan DR ATLANTA GA 30311,33.688614561078,-84.487639155466,4.0,453.0,9347.19684482238,5.062822341142842,2.3739831016086463
Metro Wing,1880 METROPOLITAN Parkway Atlanta GA nan,33.703068775918,-84.407722570192,4.1,213.0,51179.29114817798,5.055469647073168,2.370535386026993
Bankhead Seafood,1651 Donald Lee Hollowell nan PKWY Atlanta GA 30318,33.772986379346,-84.441739686039,4.0,381.0,45688.0705355869,5.032825345164683,2.3599173578884955
JR Crickets Cascade,2348 Cascade Rd nan nan Atlanta GA 30311,33.721430005376,-84.465176493146,3.8,1442.0,11858.095366825071,5.000521205815528,2.3447697829274525
CRUCIAL RESTAURANT & LOUNGE,2517 DONALD L HOLLOWELL PKWY ATLANTA GA 30318,33.776184452593,-84.468181656892,4.2,65.0,12405.472833714883,4.964208452927585,2.3277425487248387
US Deli,902 DONALD LEE HOLLOWELL PKWY Atlanta GA 30318,33.772710991918,-84.416822970108,4.1,91.0,25524.306828618108,4.905153009211677,2.3000511513198245
Shell Food Mart,"2477 Metropolitan Parkway, SW nan nan Atlanta GA 30315",33.68709244937,-84.408658242043,4.0,173.0,6749.868419949351,4.89621969931304,2.295862276950591
La Neta Mexican Food,1990 Perkerson Rd SW Ste 24 nan nan Atlanta GA 30310,33.700534800859,-84.417017430261,4.2,37.0,6823.728354958722,4.86350911057906,2.2805241158093077
MARQUETTE CLUB,868 Joseph E. Boone BLVD ATLANTA GA 30318,33.763135673368,-84.416121740088,3.9,164.0,15086.05616294334,4.764818738243424,2.2342476991331144
Little Caesars Pizza,2905 CAMPBELLTON RD ATLANTA GA 30047,33.698288157442,-84.483900156097,3.8,323.0,31536.916966203837,4.7540071038785126,2.2291780688846874
Z! Eats / Zoup! Eatery,2250 MARIETTA Boulevard Atlanta GA nan,33.805857227128,-84.463820240026,4.0,54.0,21105.682968764595,4.6961450757976975,2.2020462701303876
Corner Store On Wheels,2784 Lakewood Lakewood AVE Atlanta GA 30315,33.696990303554,-84.409524679375,4.3,6.0,7934.87165980953,4.66339215720613,2.186688260303957
La Zacatecana,1990 Perkerson RD SW nan nan Atlanta GA 30310,33.700534800859,-84.417017430261,4.1,18.0,6823.728354958722,4.62428897639066,2.1683525802780763
Starbucks Coffee#68261,2414 MARIETTA BLVD Atlanta GA 30318,33.804784973061,-84.467260234275,3.9,54.0,126525.13687350627,4.578741448902755,2.1469951133771277
MOTEL 6,3701 JONESBORO nan RD ATLANTA GA 30354,33.653014019901,-84.368456036024,3.9,52.0,1737.038459615588,4.572467589144307,2.144053268681654
Oakland City Food Mart,976 oakland dr sw nan nan atlanta GA 30310,33.728279277556,-84.42690103521,4.1,9.0,27406.543631593657,4.51,2.114761898960523
American Deli,1624 Donald Lee Hollowell PKWY Atlanta GA 30318,33.772270816272,-84.441362919491,3.6,288.0,19118.41801687617,4.485923223392358,2.10347217616238
American Deli,"2685 Metropolitan Pkwy SW, Suite H-3 nan nan ATLANTA GA 30315",33.682657416762,-84.409021094632,3.6,288.0,8418.542585110965,4.485923223392358,2.1034721761623794
Great American Cookie/PretzelMaker,2841 Greenbriar Pkwy SW Space N-425 nan nan Atlanta GA 30331,33.686618033651,-84.495719393946,3.8,56.0,12714.22648410407,4.467232445155547,2.0947079753470517
AMERICAN DELI,3565 MARTIN LUTHER KING JR DR SW UNIT 8 nan nan ATLANTA GA 30331,33.759178995974,-84.504399022322,3.7,77.0,11030.810835941873,4.400075002995479,2.063217509734689
FISH CLUB,2841 Greenbriar Pkwy SW nan nan Atlanta GA 30331,33.686618033651,-84.495719393946,3.9,17.0,12714.22648410407,4.389556276990289,2.0582852257033406
HISTORIC DON CLENDENON SUPPER CLUB & WILLIAMS TAVERN,899 MARTIN L KING JR DR ATLANTA GA 30314,33.754974465703,-84.417031511859,3.5,267.0,25451.91151117887,4.3498471779100765,2.039665427526648
EXXON FOOD MART,1163 METROPOLITAN Parkway Atlanta GA nan,33.723193138709,-84.4081564175,3.6,90.0,13142.363777333901,4.305254901235594,2.0187558825822802
Church's Chicken 725,3561 MARTIN L KING JR Drive Atlanta GA 30331,33.758934873044,-84.504099034008,3.3,1023.0,8740.801234780127,4.293398985691138,2.0131965835865575
GYRO CHEF,1475 ATLANTA INDUSTRIAL WAY ATLANTA GA 30331,33.796598116773,-84.492870468876,3.6,72.0,3682.7732958466368,4.270796229643364,2.002598036513091
McDonald's,2091 METROPOLITAN Parkway Atlanta GA nan,33.698173325368,-84.408498566788,3.2,2162.0,10211.06295553214,4.26721808622051,2.0009202268945394
Welcome Foods McDaniel,1003 McDaniel nan ST Atlanta GA 30310,33.727570294276,-84.401929250174,3.6,12.0,22050.74627080327,4.001019606830461,1.8760984083190841
ABERNATHY BP,180 Ralph David Abernathy Blvd 180 Ralph David Abernathy Blvd BLVD Atlanta GA 30312,33.738095,-84.408465,3.5,24.0,137224.2822067652,3.9892790030352137,1.8705931795880466
Popeyes #14804,3888 JONESBORO Road Atlanta GA nan,33.648261690349,-84.364962961695,3.2,161.0,27150.000548283755,3.9070448046536423,1.8320331464330781
Authentic Steak & Seafood,2997 CAMPBELLTON ROAD nan RD ATLANTA GA 30311,33.696166655839,-84.486884029809,3.3,63.0,11703.965797108423,3.896039391414683,1.8268726522867218
Travel INN,2788 FORREST HILL DR Atlanta GA nan,33.678545003607,-84.399022992886,3.0,447.0,3161.7130755815374,3.795383404199443,1.7796745488133188
Popeye's Louisiana Kitchen,2845 GREENBRIAR Parkway Atlanta GA nan,33.690110730794,-84.489457106446,3.0,148.0,18855.4215213084,3.6519558805236825,1.7124206547264547
Munchiez,3000 Stone Hogan Connector Rd SW nan nan Atlanta GA 30331,33.672763502073,-84.494414163984,3.0,120.0,3910.041136970733,3.6248356110949356,1.6997038226915415
Pizza Hut,2461 METROPOLITAN Parkway Atlanta GA nan,33.6879166,-84.409005169016,2.7,771.0,7789.665516583375,3.479656671090649,1.6316286805956346
FAIR STREET SUPERMARKET,1021 FAIR ST ATLANTA GA 30314,33.749199669691,-84.421301001879,3.0,4.0,25962.56168385859,3.209691001300806,1.505040407314278
Ricks Raging Q LLC,1990 PERKERSON RD ATLANTA GA 30310,33.700474744523,-84.416933862687,2.8,5.0,6412.4912707605135,3.0178823501074197,1.4151003568852798
,2885 LAKEWOOD AVE ATLANTA GA 30315,33.697990013146,-84.41049203482,,,4539.0881640442185,0.0,0.0
,3030 HEADLAND DR ATLANTA GA 30311,33.688614561078,-84.487639155466,,,9347.19684482238,0.0,0.0
,2149 Metropolitan Pkwy SW nan nan Atlanta GA 30315,33.69582199198,-84.408670982536,,,18028.416269583333,0.0,0.0
,2910 CAMPBELLTON RD ATLANTA GA 30311,33.697482866094,-84.483684992643,,,14611.433518674914,0.0,0.0
Elote Express #1,1990 PERKERSON Road Atlanta GA nan,33.700534800859,-84.417017430261,,,6823.728354958722,0.0,0.0
,3153 latona nan DR Atlanta GA 30354,33.66858944002,-84.395773496663,,,4398.718299569811,0.0,0.0
,1990 PERKERSON Road Atlanta GA nan,33.700534800859,-84.417017430261,,,6823.728354958722,0.0,0.0
,1475 ATLANTA INDUSTRIAL Way Atlanta GA 30331,33.796598116773,-84.492870468876,,,3682.7732958466368,0.0,0.0
,1728 CAMPBELLTON  nan RD ATLANTA GA 30311,33.711028859816,-84.444561956657,,,71847.08063815192,0.0,0.0
,2041MLK JR nan DR Atlanta GA 30310,33.750310984324,-84.453652968841,,,23665.386751888094,0.0,0.0
,1916 HARBIN RD ATLANTA GA 30311,33.703534809734,-84.480136513934,,,3704.4970478573277,0.0,0.0
,2641 DONALD L HOLLOWELL HWY ATLANTA GA 30318,33.77637090803,-84.473335689154,,,15302.872983593144,0.0,0.0
,211 CLEVELAND AVE ATLANTA GA 30315,33.68145859506,-84.395852286553,,,27426.73078825315,0.0,0.0
,1990 Perkerson Road SW nan nan ATLANTA GA 30310,33.700534800859,-84.417017430261,,,6823.728354958722,0.0,0.0
,3450 ATLANTA INDUSTRIAL PKWY Atlanta GA nan,33.795636167655,-84.496293721952,,,16199.21639000162,0.0,0.0
,1919 Metropolitan pkwy nan nan ATLANTA GA 30315,33.702584343824,-84.410140330163,,,5650.252742111651,0.0,0.0
D.O.P. Cafe,1265  Lee nan ST Atlanta nan 30310,33.720449155066,-84.424590395961,,,7806.685428132881,0.0,0.0
,387 Cleveland Avenue SW Suite 4 nan Atlanta GA 30315,33.681710261703,-84.402275422775,,,20877.833698471073,0.0,0.0
,1192 PRYOR RD ATLANTA GA 30315,33.722683309448,-84.392781324868,,,18209.16558235367,0.0,0.0
,825 MARTIN L KING JR DR ATLANTA GA 30314,33.755043323038,-84.413275916322,,,17808.60193182416,0.0,0.0
,839 CLEVELAND AVE ATLANTA GA 30315,33.681760134027,-84.416162476137,,,22789.25848526418,0.0,0.0
,3657 MARTIN L KING JR DR ATLANTA GA 30331,33.76209317416,-84.507509378953,,,21547.959846975587,0.0,0.0
,2740 GREENBRIAR PKWY ATLANTA GA 30331,33.688594989334,-84.488609696035,,,9657.805930489301,0.0,0.0
,3201 Atlanta Industrial Parkway nan nan Atlanta GA 30331,33.792059986755,-84.494820015735,,,17772.01229969263,0.0,0.0
,1990 Perkerson Rd nan nan Atlanta GA 30310,33.700534800859,-84.417017430261,,,6823.728354958722,0.0,0.0
,2179 Verbena nan ST ATLANTA GA 30314,33.75544913288,-84.459942832803,,,13114.358210930543,0.0,0.0
,3349 MARTIN L KING JR DR ATLANTA GA 30331,33.754952966121,-84.497328132623,,,15536.651632971194,0.0,0.0
,3613 MARTIN L KING JR DR ATLANTA GA 30331,33.760355018899,-84.505906004694,,,52834.488283335275,0.0,0.0
,1699 SYLVAN RD ATLANTA nan 30310,33.708362995511,-84.418359037684,,,17064.66295078024,0.0,0.0
,1089 Allene Ave nan AVE Atlanta GA 30310,33.72550960338,-84.414485173493,,,2098.9457476859006,0.0,0.0
,1518 Jonesboro RD Atlanta GA 30315,33.712810726703,-84.382256671964,,,24607.100308167577,0.0,0.0
,352 University nan AVE Atlanta GA 30310,33.721187139731,-84.399771580659,,,10098.600917577503,0.0,0.0
,3401 ATLANTA INDUSTRIAL PKWY ATLANTA GA 30331,33.793720274136,-84.49435473629,,,14830.276614473725,0.0,0.0
Windell's Seafood LLC,1475 Atlanta Industrial Way nan WAY Atlanta GA 30331,33.796598116773,-84.492870468876,,,3682.7732958466368,0.0,0.0
,1990 Perkerson Rd SW K30 nan nan Atlanta GA 30310,33.700534800859,-84.417017430261,,,6823.728354958722,0.0,0.0
,733 JOSEPH E BOONE BLVD ATLANTA GA 30314,33.763490018325,-84.411297032801,,,60727.57771535467,0.0,0.0
,1800 JONESBORO RD Atlanta GA nan,33.70500428309,-84.377853239131,,,17321.64253744039,0.0,0.0
,1475 Atlanta Industrial nan WAY Atlanta GA 30331,33.796598116773,-84.492870468876,,,3682.7732958466368,0.0,0.0
,3565 MARTIN LUTHER KING JR nan DR ATLANTA GA 30331,33.759178995974,-84.504399022322,,,11030.810835941873,0.0,0.0
,nan nan nan Atlanta GA 30314,33.75584,-84.429562,,,4285.241664039249,0.0,0.0
,nan nan ST Atlanta GA 30310,33.728257,-84.4217001,,,6497.75665767257,0.0,0.0
,451 Lee Street nan ST Atlanta GA 30311,33.742608853496,-84.414726823761,,,8724.033373245482,0.0,0.0
,2969 CAMPBELLTON RD ATLANTA GA 30311,33.696923835062,-84.485517360496,,,14986.60088008528,0.0,0.0
,1089 ALLENE Avenue Atlanta GA nan,33.72550960338,-84.414485173493,,,2098.9457476859006,0.0,0.0
MAMA JANE SEAFOOD LLC,2960 CAMPBELLTON nan RD Atlanta GA 30310,33.696695051015,-84.484780842664,,,11102.159216521575,0.0,0.0
,421 CLEVELAND AVE ATLANTA GA 30315,33.681735533141,-84.403480153719,,,12575.684315831197,0.0,0.0
,1468 WESTRIDGE Road Atlanta GA nan,33.715572689527,-84.446441514625,,,18428.410211366307,0.0,0.0
,211 Boykin Street nan ST Atlanta GA 30315,33.723194018809,-84.394943017696,,,6739.7416257449895,0.0,0.0
,1990 PERKERSON Road Atlanta GA 30310,33.700534800859,-84.417017430261,,,6823.728354958722,0.0,0.0
,1995 Metropolitan pkwy nan nan Atlanta GA 30315,33.699291010247,-84.40815298092,,,41653.90694541651,0.0,0.0
,1955 Campbellton nan RD Atlanta GA 30311,33.708515713787,-84.453130608636,,,28437.66054642907,0.0,0.0
,412 SAWTELL Avenue Atlanta GA nan,33.708198374933,-84.375588784169,,,2558.515191209583,0.0,0.0
,1162 PRYOR ST ATLANTA GA 30315,33.722611727995,-84.392828514982,,,17742.492205741262,0.0,0.0
,2179 VERBENA Street Atlanta GA nan,33.75544913288,-84.459942832803,,,13114.358210930543,0.0,0.0
,1990 Perkerson Road nan nan Atlanta GA 30310,33.700534800859,-84.417017430261,,,6823.728354958722,0.0,0.0
,609 WHITEHALL ST ATLANTA GA 30303,33.742505001716,-84.407906469148,,,5582.627269792554,0.0,0.0
,2185 Martin L King Jr DR Atlanta GA 30311,33.752624934424,-84.462862249679,,,102298.84623470457,0.0,0.0
,1192 PRYOR RD ATLANTA GA 30315,33.722683309448,-84.392781324868,,,18209.16558235367,0.0,0.0
,2079 JOSEPH E BOONE Boulevard Atlanta GA nan,33.764023987466,-84.456308355767,,,25903.02428579705,0.0,0.0
Simplicity Beverage Company,817 HARWELL Road Atlanta GA 30318,33.777763561242,-84.494725803144,,,5192.5600455962285,0.0,0.0
,2250 Marietta nan BLVD Atlanta GA 30318,33.805857227128,-84.463820240026,,,21105.682968764595,0.0,0.0
,2176 COUNTY LINE RD Atlanta GA 30311,33.695270127475,-84.534369271497,,,13186.439764823239,0.0,0.0
,2238 PERKERSON Road Atlanta GA 30315,33.693603008843,-84.410534531069,,,3768.3619948684354,0.0,0.0
,1990 Perkerson Rd nan nan Atlanta GA 30310,33.700474744523,-84.416933862687,,,6412.4912707605135,0.0,0.0
,1990 Perkerson Rd nan nan Atlanta GA 30310,33.700474744523,-84.416933862687,,,6412.4912707605135,0.0,0.0
,191 Ralph David Abernathy Blvd. nan nan Atlanta GA 30312,33.737016615335,-84.394203650017,,,23865.12061572046,0.0,0.0
,1996 PLAZA LN SW nan nan Atlanta GA 30311,33.701540604879,-84.452579748369,,,10694.206642961906,0.0,0.0
,3120 DONALD LEE HOLLOWELL Parkway Atlanta GA nan,33.783877489056,-84.489262143378,,,12675.914351968311,0.0,0.0
,1990 Perkerson rd sw unit 54 nan nan atlanta GA 30310,33.700474744523,-84.416933862687,,,6412.4912707605135,0.0,0.0
,110 dogwood dr Apt d nan Atlanta GA 30318,33.782573536888,-84.493009101913,,,64963.3895247031,0.0,0.0
,2191 CAMPBELLTON Road Atlanta GA nan,33.705803539467,-84.460166378161,,,14635.382770561046,0.0,0.0
,1990 PERKERSON RD SW nan nan Atlanta GA 30310,33.700474744523,-84.416933862687,,,6412.4912707605135,0.0,0.0
,3455 Martin Luther King JR nan DR Atlanta GA 30331,33.756387361212,-84.500505963573,,,22625.379215241875,0.0,0.0
,2260 CASCADE RD ATLANTA GA 30311,33.722277373877,-84.462537450931,,,17113.41899122674,0.0,0.0
,3451 ATLANTA INDUSTRIAL PKWY ATLANTA GA 30331,33.795052996741,-84.494366973869,,,8044.006861710125,0.0,0.0
,2065 STEWART AVE ATLANTA GA 30315,33.699263539716,-84.408159633959,,,46058.88851692578,0.0,0.0
,176 FAIRBURN RD ATLANTA GA 30331,33.760581120737,-84.505363192645,,,13831.889389650401,0.0,0.0
,3181 DONALD L HOLLOWELL PKWY ATLANTA GA 30318,33.786490421643,-84.489931941261,,,8325.832668341991,0.0,0.0
,2250 Marietta Blvd nan nan Atlanta GA 30318,33.805857227128,-84.463820240026,,,21105.682968764595,0.0,0.0
,349 CLEVELAND AVE nan nan ATLANTA GA 30315,33.68154610213,-84.400916716271,,,30535.721875196836,0.0,0.0
,1380 W MARIETTA ST ATLANTA GA 30318,33.785929462773,-84.433699429237,,,9642.471508171046,0.0,0.0
,3826 Crosby DR nan nan Atlanta GA 30331,33.772491134597,-84.512154378235,,,2513.9064350291783,0.0,0.0
,324 CLIMAX Street Atlanta GA 30315,33.721260439475,-84.377551071522,,,8471.271417214242,0.0,0.0
,2053 C METROPOLITAN PARKWAY nan PKWY Atlanta GA 30315,33.699600009108,-84.408499991711,,,19863.91883070671,0.0,0.0
TAQUERIA EL MARIACHI LLC,1990 PERKERSON RD SW nan nan ATLANTA GA 30310,33.700474744523,-84.416933862687,,,6412.4912707605135,0.0,0.0
,2960 CAMPBELLTON Road Atlanta GA 30311,33.696602682442,-84.484793666976,,,11762.285585346854,0.0,0.0
,788 West Marietta St NW nan nan Atlanta GA 30318,33.779754305156,-84.414047889604,,,15418.997128669256,0.0,0.0
,2179 VERBENA ST Atlanta GA 30314,33.755489743201,-84.459978036797,,,12745.439588491532,0.0,0.0
,1990 Perkerson Rd Sw nan nan Atlanta GA 30310,33.700474744523,-84.416933862687,,,6412.4912707605135,0.0,0.0
,847 mcdaniel st nan nan atlanta GA 30310,33.731818787629,-84.401910977625,,,40536.13449146433,0.0,0.0
,1990 Perkerson Rd SW nan nan Atlanta GA 30310,33.700474744523,-84.416933862687,,,6412.4912707605135,0.0,0.0
,1990 Perkerson RD Atlanta GA 30310,33.700474744523,-84.416933862687,,,6412.4912707605135,0.0,0.0
,1990 Perkinson Rd SW nan RD Atlanta GA 30310,33.700474744523,-84.416933862687,,,6412.4912707605135,0.0,0.0
,816 Cascade  nan AVE Atlanta GA 30310,33.732919247697,-84.437629033084,,,31652.530872457788,0.0,0.0
FowlPlayAtl LLC,1475 ATLANTA INDUSTRIAL WAY Atlanta GA 30331,33.796600212248,-84.492872564352,,,3685.5188473793887,0.0,0.0
Lindsey Catering,1990 Perkerson nan RD atlanta GA 30310,33.700474744523,-84.416933862687,,,6412.4912707605135,0.0,0.0
,1265 LEE Street Atlanta GA 30310,33.720616457854,-84.424564831157,,,7081.153611360467,0.0,0.0
SOW ATL2,2061 Donald Lee Hollowell Parkway nw nan nan ATLANTA GA 30318,33.777018242412,-84.452851323622,,,31060.224518284012,0.0,0.0
District 12 Social Lounge,2040 SYLVAN nan RD ATLANTA GA 30310,33.699041355261,-84.417869199262,,,28245.941790871017,0.0,0.0
,943 WASHINGTON Street Atlanta GA nan,33.729053974957,-84.391268391344,,,4276.849973810796,0.0,0.0
,2100 METROPOLITAN Parkway Atlanta GA nan,33.697025046543,-84.407730449181,,,57812.02619446939,0.0,0.0
,2096 METROPOLITAN PKWY ATLANTA GA 30310,33.697500216634,-84.407733550485,,,23158.614483463036,0.0,0.0
,2841 GREENBRIAR PKWY ATLANTA GA 30331,33.686618033651,-84.495719393946,,,12714.22648410407,0.0,0.0
,946 MARTIN L KING JR DR ATLANTA GA 30314,33.754325329212,-84.418376891137,,,14721.532357430986,0.0,0.0
,394 CLEVELAND AVE ATLANTA GA 30315,33.680613573492,-84.401646780037,,,11868.151866511944,0.0,0.0
,3041 HEADLAND DR ATLANTA GA 30311,33.689871008363,-84.488292021904,,,26612.220753543603,0.0,0.0
,35 HAMILTON E HOLMES DR ATLANTA GA 30311,33.75280535489,-84.46687114633,,,23387.76522242594,0.0,0.0
,2596 BANKHEAD PKWY ATLANTA GA 30303,33.775534980826,-84.472362969291,,,14055.693608716963,0.0,0.0
,2080 CAMPBELLTON RD ATLANTA GA 30311,33.705298990805,-84.456916965757,,,15821.544508655708,0.0,0.0
,2000 SYLVAN RD ATLANTA GA 30310,33.699871457042,-84.418030131803,,,16787.651766138628,0.0,0.0
,2975 HEADLAND DR ATLANTA GA 30311,33.691690174719,-84.48678780556,,,4207.890795178809,0.0,0.0
,875 MARTIN L KING JR DR ATLANTA GA 30314,33.754946931151,-84.41616834347,,,9058.544629315042,0.0,0.0
,2740 GREENBRIAR PKWY ATLANTA GA 30331,33.688594989334,-84.488609696035,,,9657.805930489301,0.0,0.0
,2841 GREENBRIAR PKWY ATLANTA GA 30331,33.686618033651,-84.495719393946,,,12714.22648410407,0.0,0.0
,10 NORTHSIDE DR ATLANTA GA 30314,33.75482929114,-84.40322207492,,,10096.406158235854,0.0,0.0
,1796 DELOWE DR ATLANTA GA 30311,33.70687499815,-84.457367995967,,,32081.593984566538,0.0,0.0
,2841 GREENBRIAR PKWY ATLANTA GA 30331,33.686618033651,-84.495719393946,,,12714.22648410407,0.0,0.0
,1217 METROPOLITAN PKWY ATLANTA GA 30310,33.721711553504,-84.408338891532,,,14122.4154235867,0.0,0.0
,3534 MARTIN L KING JR DR ATLANTA GA 30331,33.757683957814,-84.503396211426,,,25055.50293883322,0.0,0.0
,910 HARWELL ST ATLANTA GA 30314,33.755498623747,-84.417730050933,,,14657.452423622373,0.0,0.0
,1608 JOSEPH E BOONE BLVD ATLANTA GA 30314,33.763490982244,-84.440157015082,,,32497.51096786071,0.0,0.0
,501 FAIRBURN RD ATLANTA GA 30331,33.739616597881,-84.512188827857,,,4994.708952828483,0.0,0.0
,200 CLEVELAND AVE ATLANTA GA 30315,33.680817798563,-84.394918710177,,,11925.673471526123,0.0,0.0
,2841 GREENBRIAR PKWY ATLANTA GA 30331,33.686618033651,-84.495719393946,,,12714.22648410407,0.0,0.0
,2301 MARIETTA BLVD ATLANTA GA 30318,33.805879581768,-84.46441014452,,,10143.088567242088,0.0,0.0
Dream Provisions,448 Ralph D Abernathy nan BLVD Atlanta GA 30312,33.736452010337,-84.402592007258,,,12622.283082205457,0.0,0.0
,3 ASHBY ST ATLANTA GA 30314,33.754475700555,-84.417943379105,,,35536.10330438493,0.0,0.0
,3195 BANKHEAD HWY ATLANTA GA 30318,33.786596368899,-84.491483347719,,,16929.016620285995,0.0,0.0
,2284 CASCADE RD ATLANTA GA 30311,33.721883508247,-84.463411431975,,,14199.714121276564,0.0,0.0
,2885 LAKEWOOD AVE ATLANTA GA 30315,33.697977188834,-84.410516090882,,,4506.9973412613235,0.0,0.0
,881 BANKHEAD HWY ATLANTA GA 30318,33.773460166423,-84.416133223295,,,16308.96143076863,0.0,0.0
,2685 METROPOLITAN PKWY ATLANTA GA 30315,33.682657416762,-84.409021094632,,,8418.542585110965,0.0,0.0
,3083 MARTIN L KING JR DR ATLANTA GA 30311,33.751381461456,-84.488481325899,,,46588.61156088383,0.0,0.0
,2644 METROPOLITAN PKWY ATLANTA GA 30315,33.68228886448,-84.407391401197,,,15762.451055235617,0.0,0.0
,798 JAMES JACKSON PKWY ATLANTA GA 30318,33.777066103079,-84.474378397909,,,22521.461485046482,0.0,0.0
,1665 JONESBORO RD ATLANTA GA 30315,33.706621655126,-84.379863387151,,,49168.01021838498,0.0,0.0
,2760 GREENBRIAR PKWY ATLANTA GA 30331,33.688133984659,-84.489139180858,,,19353.312741471495,0.0,0.0
,3566 MARTIN L KING JR DR ATLANTA GA 30303,33.758557561673,-84.504701776665,,,13400.32208306647,0.0,0.0
,3085 CAMPBELLTON RD ATLANTA GA 30311,33.693910918056,-84.489776792233,,,15482.497315292561,0.0,0.0
,1660 DONALD LEE HOLLOWEL PKWY ATLANTA GA 30318,33.772675578377,-84.442404035685,,,32976.83879134239,0.0,0.0
,1032 METROPOLITAN PKWY ATLANTA GA 30310,33.726791908837,-84.406181054379,,,7051.587313362171,0.0,0.0
,1892 METROPOLITAN PKWY ATLANTA GA 30315,33.70271715508,-84.407688623484,,,24031.90749568492,0.0,0.0
,1955 METROPOLITAN PKWY ATLANTA GA 30315,33.701578012529,-84.408444000598,,,8553.1882326265,0.0,0.0
,448 RALPH D ABERNATHY  BLVD ATLANTA GA 30312,33.736367017839,-84.402476001718,,,11776.807301462617,0.0,0.0
BON APPETIT,1 PORSCHE DR ATLANTA GA 30354,33.651818215685,-84.398813110031,,,7494.478009182974,0.0,0.0
,2091 CAMPBELLTON RD ATLANTA GA 30311,33.706982202691,-84.456832308535,,,18940.837896855388,0.0,0.0
,2205 CAMPBELLTON RD ATLANTA GA 30311,33.705674793434,-84.460654288745,,,19638.567255974016,0.0,0.0
,490 FAIRBURN RD ATLANTA GA 30331,33.740936286627,-84.509952871366,,,22092.769399337863,0.0,0.0
,3650 JONESBORO RD ATLANTA GA 30354,33.655674980793,-84.366018997676,,,1302.7378037523117,0.0,
,3650 JONESBORO RD ATLANTA GA 30354,33.655674980793,-84.366018997676,,,1302.7378037523117,0.0,
